{
  "spots": [
    {
      "type": "spot",
      "address": "Av. Pres. Juscelino Kubitschek, 2014",
      "cordinates": {
        "lat": -23.590494200232232,
        "lng": -46.68939134530981
      },
      "maxHeight": "200",
      "id": 1
    },
    {
      "type": "spot",
      "address": "Av. Tiradentes, 614",
      "cordinates": {
        "lat": -23.530581682735114,
        "lng": -46.631911191857036
      },
      "maxHeight": "500",
      "id": 2
    },
    {
      "type": "spot",
      "address": "Av. Eng. Billings, 43",
      "cordinates": {
        "lat": -23.545742233629497,
        "lng": -46.73560697429042
      },
      "maxHeight": "360",
      "id": 3
    },
    {
      "type": "spot",
      "address": "Av. Marginal Tietê, 3704",
      "cordinates": {
        "lat": -23.50796133171728,
        "lng": -46.710452206498495
      },
      "maxHeight": "430",
      "id": 4
    },
    {
      "type": "spot",
      "address": "Av. Santos Dumont, 758",
      "cordinates": {
        "lat": -23.522407343493597,
        "lng": -46.63032808524911
      },
      "maxHeight": "380",
      "id": 5
    },
    {
      "type": "spot",
      "address": "Viaduto Santa Ifigênia, 89",
      "cordinates": {
        "lat": -23.54341361418276,
        "lng": -46.635270212936405
      },
      "maxHeight": "620",
      "id": 6
    },
    {
      "type": "report",
      "address": "Av. Dr. Arnaldo, 1115",
      "cordinates": {
        "lat": -23.552763599072264,
        "lng": -46.674443679031626
      },
      "maxHeight": "0",
      "id": 7
    },
    {
      "type": "report",
      "address": "R. José Bonifácio, 367",
      "cordinates": {
        "lat": -23.547877121452434,
        "lng": -46.631289814758304
      },
      "maxHeight": "0",
      "id": 8
    },
    {
      "type": "report",
      "address": "R. Santa Isabel, 232",
      "cordinates": {
        "lat": -23.54268392298932,
        "lng": -46.64789805297852
      },
      "maxHeight": "0",
      "id": 9
    },
    {
      "type": "spot",
      "address": "R. Gabus Mendes, 26",
      "cordinates": {
        "lat": -23.544454354599193,
        "lng": -46.64313444976807
      },
      "maxHeight": "650",
      "id": 10
    },
    {
      "type": "spot",
      "address": "Av. Afonso D'Escragnolle Taunay, 2",
      "cordinates": {
        "lat": -23.62985015644398,
        "lng": -46.63521590447058
      },
      "maxHeight": "520",
      "id": 11
    },
    {
      "type": "report",
      "address": "Av. Higienópolis, 529 - Higienópolis",
      "cordinates": {
        "lat": -23.54347,
        "lng": -46.6569891
      },
      "maxHeight": "0",
      "id": 12
    }
  ]
}